
$GPGGA,235944.800,,,,,0,00,,,M,,M,,*7D
$GPRMC,235944.800,V,,,,,0.00,0.00,050180,,,N*44
$GPGGA,235945.799,,,,,0,00,,,M,,M,,*73
$GPRMC,235945.799,V,,,,,0.00,0.00,050180,,,N*4A
$GPGGA,235946.799,,,,,0,00,,,M,,M,,*70
$GPRMC,235946.799,V,,,,,0.00,0.00,050180,,,N*49
$GPGGA,235947.799,,,,,0,00,,,M,,M,,*71
$GPRMC,235947.799,V,,,,,0.00,0.00,050180,,,N*48
$GPGGA,235948.799,,,,,0,00,,,M,,M,,*7E
$GPRMC,235948.799,V,,,,,0.00,0.00,050180,,,N*47
$GPGGA,235949.799,,,,,0,00,,,M,,M,,*7F
$GPRMC,235949.799,V,,,,,0.00,0.00,050180,,,N*46
$GPGGA,235950.799,,,,,0,00,,,M,,M,,*77
$GPRMC,235950.799,V,,,,,0.00,0.00,050180,,,N*4E
$GPGGA,235951.800,,,,,0,00,,,M,,M,,*79
$GPRMC,235951.800,V,,,,,0.00,0.00,050180,,,N*40
$GPGGA,235952.800,,,,,0,00,,,M,,M,,*7A
$GPRMC,235952.800,V,,,,,0.00,0.00,050180,,,N*43
$GPGGA,235953.800,,,,,0,00,,,M,,M,,*7B
$GPRMC,235953.800,V,,,,,0.00,0.00,050180,,,N*42
$GPGGA,235954.005,,,,,0,00,,,M,,M,,*71
$GPRMC,235954.005,V,,,,,0.00,0.00,050180,,,N*48
$GPGGA,235955.005,,,,,0,00,,,M,,M,,*70
$GPRMC,235955.005,V,,,,,0.00,0.00,050180,,,N*49
$GPGGA,171857.276,,,,,0,00,,,M,,M,,*76
$GPRMC,171857.276,V,,,,,0.00,0.00,080180,,,N*42
$GPGGA,171858.276,,,,,0,00,,,M,,M,,*79
$GPRMC,171858.276,V,,,,,0.00,0.00,080180,,,N*4D
$GPGGA,171859.276,,,,,0,00,,,M,,M,,*78
$GPRMC,171859.276,V,,,,,0.00,0.00,080180,,,N*4C
$GPGGA,171900.276,,,,,0,00,,,M,,M,,*75
$GPRMC,171900.276,V,,,,,0.00,0.00,080180,,,N*41
$GPGGA,171901.095,,,,,0,00,,,M,,M,,*7B
$GPRMC,171901.095,V,,,,,0.00,0.00,080180,,,N*4F
$GPGGA,171902.095,,,,,0,00,,,M,,M,,*78
$GPRMC,171902.095,V,,,,,0.00,0.00,080180,,,N*4C
$GPGGA,171903.095,,,,,0,00,,,M,,M,,*79
$GPRMC,171903.095,V,,,,,0.00,0.00,080180,,,N*4D
$GPGGA,171904.095,,,,,0,00,,,M,,M,,*7E
$GPRMC,171904.095,V,,,,,0.00,0.00,080180,,,N*4A
$GPGGA,171905.095,,,,,0,00,,,M,,M,,*7F
$GPRMC,171905.095,V,,,,,0.00,0.00,080180,,,N*4B
$GPGGA,171906.095,,,,,0,00,,,M,,M,,*7C
$GPRMC,171906.095,V,,,,,0.00,0.00,080180,,,N*48
$GPGGA,171907.095,,,,,0,00,,,M,,M,,*7D
$GPRMC,171907.095,V,,,,,0.00,0.00,080180,,,N*49
$GPGGA,171908.095,,,,,0,00,,,M,,M,,*72
$GPRMC,171908.095,V,,,,,0.00,0.00,080180,,,N*46
$GPGGA,171909.095,,,,,0,00,,,M,,M,,*73
$GPRMC,171909.095,V,,,,,0.00,0.00,080180,,,N*47
$GPGGA,171910.095,,,,,0,00,,,M,,M,,*7B
$GPRMC,171910.095,V,,,,,0.00,0.00,080180,,,N*4F
$GPGGA,171911.095,,,,,0,00,,,M,,M,,*7A
$GPRMC,171911.095,V,,,,,0.00,0.00,080180,,,N*4E
$GPGGA,171912.095,,,,,0,00,,,M,,M,,*79
$GPRMC,171912.095,V,,,,,0.00,0.00,080180,,,N*4D
$GPGGA,171913.090,,,,,0,00,,,M,,M,,*7D
$GPRMC,171913.090,V,,,,,0.00,0.00,080180,,,N*49
$GPGGA,171914.090,,,,,0,00,,,M,,M,,*7A
$GPRMC,171914.090,V,,,,,0.00,0.00,080180,,,N*4E
$GPGGA,171915.090,,,,,0,00,,,M,,M,,*7B
$GPRMC,171915.090,V,,,,,0.00,0.00,080180,,,N*4F
$GPGGA,171916.090,,,,,0,00,,,M,,M,,*78
$GPRMC,171916.090,V,,,,,0.00,0.00,080180,,,N*4C
$GPGGA,171917.090,,,,,0,00,,,M,,M,,*79
$GPRMC,171917.090,V,,,,,0.00,0.00,080180,,,N*4D
$GPGGA,171918.090,,,,,0,00,,,M,,M,,*76
$GPRMC,171918.090,V,,,,,0.00,0.00,080180,,,N*42
$GPGGA,171919.090,,,,,0,00,,,M,,M,,*77
$GPRMC,171919.090,V,,,,,0.00,0.00,260416,,,N*45
$GPGGA,171920.090,,,,,0,00,,,M,,M,,*7D
$GPRMC,171920.090,V,,,,,0.00,0.00,260416,,,N*4F
$GPGGA,171921.090,,,,,0,00,,,M,,M,,*7C
$GPRMC,171921.090,V,,,,,0.00,0.00,260416,,,N*4E
$GPGGA,171922.090,,,,,0,00,,,M,,M,,*7F
$GPRMC,171922.090,V,,,,,0.00,0.00,260416,,,N*4D
$GPGGA,171923.090,,,,,0,00,,,M,,M,,*7E
$GPRMC,171923.090,V,,,,,0.00,0.00,260416,,,N*4C
$GPGGA,171924.090,,,,,0,00,,,M,,M,,*79
$GPRMC,171924.090,V,,,,,0.00,0.00,260416,,,N*4B
$GPGGA,171925.090,,,,,0,00,,,M,,M,,*78
$GPRMC,171925.090,V,,,,,0.00,0.00,260416,,,N*4A
$GPGGA,171926.090,,,,,0,00,,,M,,M,,*7B
$GPRMC,171926.090,V,,,,,0.00,0.00,260416,,,N*49
$GPGGA,171927.090,,,,,0,00,,,M,,M,,*7A
$GPRMC,171927.090,V,,,,,0.00,0.00,260416,,,N*48
$GPGGA,171928.090,,,,,0,00,,,M,,M,,*75
$GPRMC,171928.090,V,,,,,0.00,0.00,260416,,,N*47
$GPGGA,171929.090,,,,,0,00,,,M,,M,,*74
$GPRMC,171929.090,V,,,,,0.00,0.00,260416,,,N*46
$GPGGA,171930.090,,,,,0,00,,,M,,M,,*7C
$GPRMC,171930.090,V,,,,,0.00,0.00,260416,,,N*4E
$GPGGA,171931.090,,,,,0,00,,,M,,M,,*7D
$GPRMC,171931.090,V,,,,,0.00,0.00,260416,,,N*4F
$GPGGA,171932.090,,,,,0,00,,,M,,M,,*7E
$GPRMC,171932.090,V,,,,,0.00,0.00,260416,,,N*4C
$GPGGA,171933.090,,,,,0,00,,,M,,M,,*7F
$GPRMC,171933.090,V,,,,,0.00,0.00,260416,,,N*4D
$GPGGA,171934.090,,,,,0,00,,,M,,M,,*78
$GPRMC,171934.090,V,,,,,0.00,0.00,260416,,,N*4A
$GPGGA,171935.090,,,,,0,00,,,M,,M,,*79
$GPRMC,171935.090,V,,,,,0.00,0.00,260416,,,N*4B
$GPGGA,171936.090,,,,,0,00,,,M,,M,,*7A
$GPRMC,171936.090,V,,,,,0.00,0.00,260416,,,N*48
$GPGGA,171937.089,,,,,0,00,,,M,,M,,*73
$GPRMC,171937.089,V,,,,,0.00,0.00,260416,,,N*41
$GPGGA,171938.089,,,,,0,00,,,M,,M,,*7C
$GPRMC,171938.089,V,,,,,0.00,0.00,260416,,,N*4E
$GPGGA,171939.089,,,,,0,00,,,M,,M,,*7D
$GPRMC,171939.089,V,,,,,0.00,0.00,260416,,,N*4F
$GPGGA,171940.089,,,,,0,00,,,M,,M,,*73
$GPRMC,171940.089,V,,,,,0.00,0.00,260416,,,N*41
$GPGGA,171941.089,,,,,0,00,,,M,,M,,*72
$GPRMC,171941.089,V,,,,,0.00,0.00,260416,,,N*40
$GPGGA,171942.089,,,,,0,00,,,M,,M,,*71
$GPRMC,171942.089,V,,,,,0.00,0.00,260416,,,N*43
$GPGGA,171943.089,,,,,0,00,,,M,,M,,*70
$GPRMC,171943.089,V,,,,,0.00,0.00,260416,,,N*42
$GPGGA,171943.309,,,,,0,00,,,M,,M,,*7B
$GPRMC,171943.309,V,,,,,0.00,0.00,260416,,,N*49
$GPGGA,171944.309,,,,,0,00,,,M,,M,,*7C
$GPRMC,171944.309,V,,,,,0.00,0.00,260416,,,N*4E
$GPGGA,171945.309,,,,,0,00,,,M,,M,,*7D
$GPRMC,171945.309,V,,,,,0.00,0.00,260416,,,N*4F
$GPGGA,171946.309,,,,,0,00,,,M,,M,,*7E
$GPRMC,171946.309,V,,,,,0.00,0.00,260416,,,N*4C
$GPGGA,171947.309,,,,,0,00,,,M,,M,,*7F
$GPRMC,171947.309,V,,,,,0.00,0.00,260416,,,N*4D
$GPGGA,171948.309,,,,,0,00,,,M,,M,,*70
$GPRMC,171948.309,V,,,,,0.00,0.00,260416,,,N*42
$GPGGA,171949.089,,,,,0,00,,,M,,M,,*7A
$GPRMC,171949.089,V,,,,,0.00,0.00,260416,,,N*48
$GPGGA,171950.089,,,,,0,00,,,M,,M,,*72
$GPRMC,171950.089,V,,,,,0.00,0.00,260416,,,N*40
$GPGGA,171951.089,,,,,0,00,,,M,,M,,*73
$GPRMC,171951.089,V,,,,,0.00,0.00,260416,,,N*41
$GPGGA,171952.089,,,,,0,00,,,M,,M,,*70
$GPRMC,171952.089,V,,,,,0.00,0.00,260416,,,N*42
$GPGGA,171953.089,,,,,0,00,,,M,,M,,*71
$GPRMC,171953.089,V,,,,,0.00,0.00,260416,,,N*43
$GPGGA,171954.089,,,,,0,00,,,M,,M,,*76
$GPRMC,171954.089,V,,,,,0.00,0.00,260416,,,N*44
$GPGGA,171955.089,,,,,0,00,,,M,,M,,*77
$GPRMC,171955.089,V,,,,,0.00,0.00,260416,,,N*45
$GPGGA,171955.309,,,,,0,00,,,M,,M,,*7C
$GPRMC,171955.309,V,,,,,0.00,0.00,260416,,,N*4E
$GPGGA,171956.309,,,,,0,00,,,M,,M,,*7F
$GPRMC,171956.309,V,,,,,0.00,0.00,260416,,,N*4D
$GPGGA,171957.309,,,,,0,00,,,M,,M,,*7E
$GPRMC,171957.309,V,,,,,0.00,0.00,260416,,,N*4C
$GPGGA,171958.309,,,,,0,00,,,M,,M,,*71
$GPRMC,171958.309,V,,,,,0.00,0.00,260416,,,N*43
$GPGGA,171959.309,,,,,0,00,,,M,,M,,*70
$GPRMC,171959.309,V,,,,,0.00,0.00,260416,,,N*42
$GPGGA,172000.309,,,,,0,00,,,M,,M,,*76
$GPRMC,172000.309,V,,,,,0.00,0.00,260416,,,N*44
$GPGGA,172001.298,,,,,0,03,,,M,,M,,*7D
$GPRMC,172001.298,V,,,,,0.28,14.50,260416,,,N*76
$GPGGA,172002.298,,,,,0,00,,,M,,M,,*7D
$GPRMC,172002.298,V,,,,,0.01,14.50,260416,,,N*7E
$GPGGA,172003.298,,,,,0,00,,,M,,M,,*7C
$GPRMC,172003.298,V,,,,,0.00,0.00,260416,,,N*4E
$GPGGA,172004.298,,,,,0,00,,,M,,M,,*7B
$GPRMC,172004.298,V,,,,,0.00,0.00,260416,,,N*49
$GPGGA,172005.298,,,,,0,00,,,M,,M,,*7A
$GPRMC,172005.298,V,,,,,0.00,0.00,260416,,,N*48
$GPGGA,172006.298,,,,,0,00,,,M,,M,,*79
$GPRMC,172006.298,V,,,,,0.00,0.00,260416,,,N*4B
$GPGGA,172007.078,,,,,0,00,,,M,,M,,*74
$GPRMC,172007.078,V,,,,,0.00,0.00,260416,,,N*46
$GPGGA,172007.298,,,,,0,00,,,M,,M,,*78
$GPRMC,172007.298,V,,,,,0.00,0.00,260416,,,N*4A
$GPGGA,172008.298,,,,,0,00,,,M,,M,,*77
$GPRMC,172008.298,V,,,,,0.00,0.00,260416,,,N*45
$GPGGA,172009.298,,,,,0,00,,,M,,M,,*76
$GPRMC,172009.298,V,,,,,0.00,0.00,260416,,,N*44
$GPGGA,172010.298,,,,,0,00,,,M,,M,,*7E
$GPRMC,172010.298,V,,,,,0.00,0.00,260416,,,N*4C
$GPGGA,172011.298,,,,,0,03,,,M,,M,,*7C
$GPRMC,172011.298,V,,,,,0.56,85.21,260416,,,N*70
$GPGGA,172012.298,,,,,0,03,,,M,,M,,*7F
$GPRMC,172012.298,V,,,,,0.33,79.73,260416,,,N*74
$GPGGA,172013.202,,,,,0,03,,,M,,M,,*7D
$GPRMC,172013.202,V,,,,,1.50,74.84,260416,,,N*77
$GPGGA,172015.000,4000.7010,N,10515.6377,W,1,03,2.78,170.6,M,-20.6,M,,*5E
$GPRMC,172015.000,A,4000.7010,N,10515.6377,W,1.31,98.75,260416,,,A*4C
$GPGGA,172016.000,4000.7019,N,10515.6387,W,1,03,2.78,170.8,M,-20.6,M,,*55
$GPRMC,172016.000,A,4000.7019,N,10515.6387,W,1.64,344.86,260416,,,A*77
$GPGGA,172017.000,4000.7020,N,10515.6386,W,1,03,2.78,170.7,M,-20.6,M,,*50
$GPRMC,172017.000,A,4000.7020,N,10515.6386,W,1.24,47.84,260416,,,A*4B
$GPGGA,172018.000,4000.7022,N,10515.6384,W,1,03,2.78,170.7,M,-20.6,M,,*5F
$GPRMC,172018.000,A,4000.7022,N,10515.6384,W,1.15,37.87,260416,,,A*42
$GPGGA,172019.205,4000.7022,N,10515.6388,W,1,03,2.78,170.7,M,-20.6,M,,ª55
$GPGGA,172019.205,4000.7022,N,10515.6388,W,1,03,2.78,170.7,M,-20.6,M,,ª55
$GPGGA,172021.000,4000.7020,N,10515.6387,W,1,03,2.78,170.7,M,-20.6,M,,*54
$GPRMC,172021.000,A,4000.7020,N,10515.6387,W,0.70,43.79,260416,,,A*49
$GPGGA,172022.000,4000.7020,N,10515.6384,W,1,03,2.78,170.7,M,-20.6,M,,*54
$GPRMC,172022.000,A,4000.7020,N,10515.6384,W,0.81,64.45,260416,,,A*4D
$GPGGA,172023.000,4000.7018,N,10515.6387,W,1,03,2.78,170.7,M,-20.6,M,,*5D
$GPRMC,172023.000,A,4000.7018,N,10515.6387,W,0.42,70.31,260416,,,A*4D
$GPGGA,172024.000,4000.7024,N,10515.6390,W,1,03,2.78,170.7,M,-20.6,M,,*53
$GPRMC,172024.000,A,4000.7024,N,10515.6390,W,0.41,20.40,260416,,,A*43
$GPGGA,172025.206,4000.7029,N,10515.6392,W,1,03,2.78,170.7,M,-20.6,M,,*59
$GPGGA,172025.206,4000.7029,N,10515.6392,W,1,03,2.78,170.7,M,-20.6,M,,*59
$GPRMC,172025.206,A,4000.7029,N,10515.6392,W,0.34,27.06,260416,,,A*4E
$GPGGA,172027.000,4000.7035,N,10515.6405,W,1,03,2.78,170.7,M,-20.6,M,,*5B
$GPRMC,172027.000,A,4000.7035,N,10515.6405,W,1.22,305.97,260416,,,A*71
$GPGGA,172028.000,4000.7035,N,10515.6407,W,1,03,2.79,170.7,M,-20.6,M,,*57
$GPRMC,172028.000,A,4000.7035,N,10515.6407,W,0.91,304.66,260416,,,A*7A
$GPGGA,172029.000,4000.7037,N,10515.6411,W,1,03,2.79,170.7,M,-20.6,M,,*53
$GPRMC,172029.000,A,4000.7037,N,10515.6411,W,0.95,303.20,260416,,,A*7F
$GPGGA,172030.000,4000.7038,N,10515.6413,W,1,03,2.78,170.7,M,-20.6,M,,*57
$GPRMC,172030.000,A,4000.7038,N,10515.6413,W,0.88,308.07,260416,,,A*78
$GPGGA,172031.211,4000.7038,N,10515.6418,W,1,03,2.79,170.7,M,-20.6,M,,*5E
$GPGGA,172031.211,4000.7038,N,10515.6418,W,1,03,2.79,170.7,M,-20.6,M,,*5E
$GPRMC,172031.211,A,4000.7038,N,10515.6418,W,0.92,299.15,260416,,,A*71
$GPGGA,172033.000,4000.7040,N,10515.6424,W,1,03,2.79,170.7,M,-20.6,M,,*5E
$GPRMC,172033.000,A,4000.7040,N,10515.6424,W,0.77,295.45,260416,,,A*73
$GPGGA,172034.000,4000.7041,N,10515.6428,W,6,02,99.99,170.7,M,-20.6,M,,*6E
$GPRMC,172034.000,V,,,,,0.68,297.77,260416,,,E*40
$GPGGA,172035.000,4000.7041,N,10515.6428,W,1,03,2.79,170.7,M,-20.6,M,,*55
$GPRMC,172035.000,A,4000.7041,N,10515.6428,W,0.51,306.65,260416,,,A*75
$GPGGA,172036.000,4000.7042,N,10515.6429,W,1,03,2.79,170.7,M,-20.6,M,,*54
$GPRMC,172036.000,A,4000.7042,N,10515.6429,W,0.50,303.40,260416,,,A*77
$GPGGA,172037.210,4000.7044,N,10515.6432,W,1,03,2.79,170.7,M,-20.6,M,,*5A
$GPGGA,172037.210,4000.7044,N,10515.6432,W,1,03,2.79,170.7,M,-20.6,M,,*5A
$GPRMC,172037.210,A,4000.7044,N,10515.6432,W,0.61,307.94,260416,,,A*76
$GPGGA,172039.000,4000.7044,N,10515.6437,W,1,03,2.79,170.7,M,-20.6,M,,*52
$GPRMC,172039.000,A,4000.7044,N,10515.6437,W,0.52,297.68,260416,,,A*75
$GPGGA,172040.000,4000.7044,N,10515.6439,W,1,03,2.79,170.7,M,-20.6,M,,*52
$GPRMC,172040.000,A,4000.7044,N,10515.6439,W,0.54,291.79,260416,,,A*75
$GPGGA,172041.000,4000.7039,N,10515.6444,W,1,03,2.79,170.7,M,-20.6,M,,*53
$GPRMC,172041.000,A,4000.7039,N,10515.6444,W,0.66,266.55,260416,,,A*73
$GPGGA,172042.000,4000.7031,N,10515.6448,W,1,03,2.79,170.7,M,-20.6,M,,*54
$GPRMC,172042.000,A,4000.7031,N,10515.6448,W,0.84,233.18,260416,,,A*71
$GPGGA,172043.210,4000.7036,N,10515.6464,W,1,03,2.80,170.6,M,-20.6,M,,*58
$GPGGA,172043.210,4000.7036,N,10515.6464,W,1,03,2.80,170.6,M,-20.6,M,,*58
$GPRMC,172043.210,A,4000.7036,N,10515.6464,W,1.13,267.70,260416,,,A*7A
$GPGGA,172045.000,4000.7039,N,10515.6474,W,1,03,2.80,170.6,M,-20.6,M,,*53
$GPRMC,172045.000,A,4000.7039,N,10515.6474,W,1.31,282.62,260416,,,A*79
$GPGGA,172046.000,4000.7043,N,10515.6473,W,1,03,2.80,170.6,M,-20.6,M,,*5A
$GPRMC,172046.000,A,4000.7043,N,10515.6473,W,1.15,292.87,260416,,,A*7C
$GPGGA,172047.000,4000.7046,N,10515.6473,W,1,03,2.80,170.8,M,-20.6,M,,*50
$GPRMC,172047.000,A,4000.7046,N,10515.6473,W,0.77,349.76,260416,,,A*74
$GPGGA,172048.000,4000.7053,N,10515.6469,W,1,03,34.39,170.9,M,-20.6,M,,*66
$GPRMC,172048.000,A,4000.7053,N,10515.6469,W,2.48,19.73,260416,,,A*49
$GPGGA,172049.208,4000.7059,N,10515.6468,W,1,03,2.80,171.4,M,-20.6,M,,*5D
$GPGGA,172049.208,4000.7059,N,10515.6468,W,1,03,2.80,171.4,M,-20.6,M,,*5D
$GPRMC,172049.208,A,4000.7059,N,10515.6468,W,1.00,300.39,260416,,,A*73
$GPGGA,172051.000,4000.7063,N,10515.6463,W,1,03,2.80,171.5,M,-20.6,M,,*5D
$GPRMC,172051.000,A,4000.7063,N,10515.6463,W,1.34,35.85,260416,,,A*47
$GPGGA,172052.000,4000.7065,N,10515.6463,W,1,03,2.80,171.7,M,-20.6,M,,*5A
$GPRMC,172052.000,A,4000.7065,N,10515.6463,W,0.55,21.78,260416,,,A*43
$GPGGA,172053.000,4000.7071,N,10515.6460,W,1,03,2.80,171.8,M,-20.6,M,,*52
$GPRMC,172053.000,A,4000.7071,N,10515.6460,W,1.16,33.78,260416,,,A*41
$GPGGA,172054.000,4000.7076,N,10515.6457,W,1,03,2.80,172.0,M,-20.6,M,,*5D
$GPRMC,172054.000,A,4000.7076,N,10515.6457,W,0.60,319.17,260416,,,A*77
$GPGGA,172055.217,4000.7080,N,10515.6457,W,1,03,2.80,172.1,M,-20.6,M,,*50
$GPGGA,172055.217,4000.7080,N,10515.6457,W,1,03,2.80,172.1,M,-20.6,M,,*50
$GPGGA,172057.000,4000.7081,N,10515.6459,W,1,03,2.80,172.2,M,-20.6,M,,*5A
$GPRMC,172057.000,A,4000.7081,N,10515.6459,W,1.10,311.78,260416,,,A*75
$GPGGA,172058.000,4000.7084,N,10515.6463,W,1,03,2.80,172.2,M,-20.6,M,,*59
$GPRMC,172058.000,A,4000.7084,N,10515.6463,W,1.46,325.84,260416,,,A*71
$GPGGA,172059.000,4000.7087,N,10515.6467,W,1,03,2.80,172.1,M,-20.6,M,,*5C
$GPRMC,172059.000,A,4000.7087,N,10515.6467,W,1.44,328.39,260416,,,A*7E
$GPGGA,172100.000,4000.7089,N,10515.6472,W,1,03,2.80,172.1,M,-20.6,M,,*5B
$GPRMC,172100.000,A,4000.7089,N,10515.6472,W,1.47,321.86,260416,,,A*77
$GPGGA,172101.216,4000.7090,N,10515.6478,W,1,03,2.81,171.9,M,-20.6,M,,*57
$GPGGA,172101.216,4000.7090,N,10515.6478,W,1,03,2.81,171.9,M,-20.6,M,,*57
$GPRMC,172101.216,A,4000.7090,N,10515.6478,W,1.20,327.72,260416,,,A*7D
$GPGGA,172103.000,4000.7094,N,10515.6482,W,1,03,2.81,171.9,M,-20.6,M,,*51
$GPRMC,172103.000,A,4000.7094,N,10515.6482,W,0.97,331.38,260416,,,A*7F
$GPGGA,172104.000,4000.7094,N,10515.6480,W,1,03,2.81,171.9,M,-20.6,M,,*54
$GPRMC,172104.000,A,4000.7094,N,10515.6480,W,0.69,357.29,260416,,,A*7B
$GPGGA,172105.000,4000.7096,N,10515.6486,W,1,03,34.61,171.9,M,-20.6,M,,*6A
$GPRMC,172105.000,A,4000.7096,N,10515.6486,W,0.72,333.82,260416,,,A*77
$GPGGA,172106.000,4000.7093,N,10515.6472,W,1,03,2.81,171.9,M,-20.6,M,,*5C
$GPRMC,172106.000,A,4000.7093,N,10515.6472,W,0.85,55.16,260416,,,A*4C
$GPGGA,172107.216,4000.7097,N,10515.6467,W,1,03,2.81,172.0,M,-20.6,M,,*52
$GPGGA,172107.216,4000.7097,N,10515.6467,W,1,03,2.81,172.0,M,-20.6,M,,*52
$GPGGA,172109.000,4000.7100,N,10515.6467,W,1,03,2.81,171.9,M,-20.6,M,,*5C
$GPRMC,172109.000,A,4000.7100,N,10515.6467,W,0.73,29.81,260416,,,A*40
$GPGGA,172110.000,4000.7111,N,10515.6483,W,1,03,2.81,171.8,M,-20.6,M,,*5F
$GPRMC,172110.000,A,4000.7111,N,10515.6483,W,1.46,335.11,260416,,,A*72
$GPGGA,172111.000,4000.7134,N,10515.6526,W,1,03,2.81,171.6,M,-20.6,M,,*59
$GPRMC,172111.000,A,4000.7134,N,10515.6526,W,4.00,318.29,260416,,,A*79
$GPGGA,172112.000,4000.7138,N,10515.6507,W,6,02,99.99,171.5,M,-20.6,M,,*6B
$GPRMC,172112.000,V,,,,,4.00,318.29,260416,,,E*42
$GPGGA,172113.219,4000.7145,N,10515.6511,W,1,03,2.81,171.4,M,-20.6,M,,*51
$GPGGA,172113.219,4000.7145,N,10515.6511,W,1,03,2.81,171.4,M,-20.6,M,,*51
$GPRMC,172113.219,A,4000.7145,N,10515.6511,W,2.05,297.93,260416,,,A*77
$GPGGA,172115.000,4000.7149,N,10515.6523,W,6,02,99.99,171.4,M,-20.6,M,,*6D
$GPRMC,172115.000,V,,,,,2.02,300.37,260416,,,E*47
$GPGGA,172116.000,4000.7150,N,10515.6529,W,1,03,2.81,171.3,M,-20.6,M,,*56
$GPRMC,172116.000,A,4000.7150,N,10515.6529,W,0.46,236.53,260416,,,A*75
$GPGGA,172117.000,4000.7146,N,10515.6531,W,1,03,2.82,171.1,M,-20.6,M,,*58
$GPRMC,172117.000,A,4000.7146,N,10515.6531,W,1.25,345.05,260416,,,A*78
$GPGGA,172118.000,4000.7148,N,10515.6531,W,1,03,34.77,171.0,M,-20.6,M,,*67
$GPRMC,172118.000,A,4000.7148,N,10515.6531,W,1.35,344.17,260416,,,A*7A
$GPGGA,172119.219,4000.7149,N,10515.6536,W,1,03,2.81,170.8,M,-20.6,M,,*5F
$GPGGA,172119.219,4000.7149,N,10515.6536,W,1,03,2.81,170.8,M,-20.6,M,,*5F
$GPGGA,172121.000,4000.7142,N,10515.6541,W,1,03,2.82,170.2,M,-20.6,M,,*5C
$GPRMC,172121.000,A,4000.7142,N,10515.6541,W,1.52,305.15,260416,,,A*7B
$GPGGA,172122.000,4000.7139,N,10515.6552,W,1,03,2.81,169.7,M,-20.6,M,,*5F
$GPRMC,172122.000,A,4000.7139,N,10515.6552,W,2.05,307.80,260416,,,A*79
$GPGGA,172123.000,4000.7135,N,10515.6546,W,1,03,2.82,169.6,M,-20.6,M,,*55
$GPRMC,172123.000,A,4000.7135,N,10515.6546,W,0.69,302.96,260416,,,A*7B
$GPGGA,172124.000,4000.7133,N,10515.6552,W,1,03,2.82,169.4,M,-20.6,M,,*53
$GPRMC,172124.000,A,4000.7133,N,10515.6552,W,0.64,256.23,260416,,,A*7C
$GPGGA,172125.207,4000.7132,N,10515.6547,W,1,03,2.82,169.4,M,-20.6,M,Œ*52
$GPRMC,172125.207,A,4000.7132,N,10515.6547,W,0.28,27.44,260416,,,A*40
$GPGGA,172127.000,4000.7130,N,10515.6536,W,1,03,2.82,169.4,M,-20.6,M,,*51
$GPRMC,172127.000,A,4000.7130,N,10515.6536,W,0.79,83.20,260416,,,A*4B
$GPGGA,172128.000,4000.7134,N,10515.6535,W,1,03,2.82,169.5,M,-20.6,M,,*58
$GPRMC,172128.000,A,4000.7134,N,10515.6535,W,0.87,323.75,260416,,,A*7B
$GPGGA,172129.000,4000.7135,N,10515.6531,W,1,03,2.82,169.6,M,-20.6,M,,*5F
$GPRMC,172129.000,A,4000.7135,N,10515.6531,W,0.42,319.25,260416,,,A*7A
$GPGGA,172130.000,4000.7137,N,10515.6529,W,1,03,2.82,169.7,M,-20.6,M,,*5D
$GPRMC,172130.000,A,4000.7137,N,10515.6529,W,0.54,321.20,260416,,,A*70
$GPGGA,172131.207,4000.7133,N,10515.6526,W,1,03,2.82,169.7,M,-20.6,M,,*52
$GPGGA,172131.207,4000.7133,N,10515.6526,W,1,03,2.82,169.7,M,-20.6,M,,*52
$GPGGA,172133.000,4000.7132,N,10515.6524,W,1,03,2.82,169.6,M,-20.6,M,,*57
$GPRMC,172133.000,A,4000.7132,N,10515.6524,W,0.12,257.12,260416,,,A*78
$GPGGA,172134.000,4000.7132,N,10515.6525,W,6,02,99.99,169.6,M,-20.6,M,,*6F
$GPRMC,172134.000,V,,,,,0.31,270.92,260416,,,E*4F
$GPGGA,172135.000,4000.7132,N,10515.6526,W,1,03,2.82,169.6,M,-20.6,M,,*53
$GPRMC,172135.000,A,4000.7132,N,10515.6526,W,0.55,279.77,260416,,,A*70
$GPGGA,172136.000,4000.7132,N,10515.6528,W,1,03,2.82,169.6,M,-20.6,M,,*5E
$GPRMC,172136.000,A,4000.7132,N,10515.6528,W,0.50,286.19,260416,,,A*70
$GPGGA,172137.206,4000.7133,N,10515.6530,W,1,03,2.83,169.6,M,-20.6,M,,*52
$GPGGA,172137.206,4000.7133,N,10515.6530,W,1,03,2.83,169.6,M,-20.6,M,,*52
$GPRMC,172137.206,A,4000.7133,N,10515.6530,W,0.63,296.39,260416,,,A*7E
$GPGGA,172139.000,4000.7136,N,10515.6533,W,1,03,2.83,169.6,M,-20.6,M,,*5E
$GPRMC,172139.000,A,4000.7136,N,10515.6533,W,0.66,306.86,260416,,,A*7B
$GPGGA,172140.000,4000.7138,N,10515.6534,W,1,03,2.83,169.6,M,-20.6,M,,*59
$GPRMC,172140.000,A,4000.7138,N,10515.6534,W,0.62,312.72,260416,,,A*76
$GPGGA,172141.000,4000.7140,N,10515.6538,W,1,03,2.83,169.6,M,-20.6,M,,*5B
$GPRMC,172141.000,A,4000.7140,N,10515.6538,W,0.76,305.77,260416,,,A*72
$GPGGA,172142.000,4000.7141,N,10515.6539,W,1,03,2.83,169.7,M,-20.6,M,,*59
$GPRMC,172142.000,A,4000.7141,N,10515.6539,W,0.73,300.75,260416,,,A*73
$GPGGA,172143.208,4000.7145,N,10515.6538,W,1,03,2.83,169.7,M,-20.6,M,,*57
$GPGGA,172143.208,4000.7145,N,10515.6538,W,1,03,2.83,169.7,M,-20.6,M,,*57
$GPRMC,172143.208,A,4000.7145,N,10515.6538,W,0.81,309.16,260416,,,A*7C
$GPGGA,172145.000,4000.7144,N,10515.6541,W,1,03,2.83,169.6,M,-20.6,M,,*55
$GPRMC,172145.000,A,4000.7144,N,10515.6541,W,0.70,289.68,260416,,,A*71
$GPGGA,172146.000,4000.7146,N,10515.6541,W,1,03,2.83,169.6,M,-20.6,M,,*54
$GPRMC,172146.000,A,4000.7146,N,10515.6541,W,0.68,318.88,260416,,,A*7E
$GPGGA,172147.000,4000.7145,N,10515.6545,W,1,03,2.83,169.6,M,-20.6,M,,*52
$GPRMC,172147.000,A,4000.7145,N,10515.6545,W,0.65,305.99,260416,,,A*79
$GPGGA,172148.000,4000.7145,N,10515.6547,W,1,03,2.83,169.5,M,-20.6,M,,*5C
$GPRMC,172148.000,A,4000.7145,N,10515.6547,W,0.66,311.65,260416,,,A*71
$GPGGA,172149.206,4000.7141,N,10515.6550,W,1,03,2.83,169.4,M,-20.6,M,,*5A
$GPGGA,172149.206,4000.7141,N,10515.6550,W,1,03,2.83,169.4,M,-20.6,M,,*5A
$GPGGA,172151.000,4000.7142,N,10515.6554,W,1,03,2.83,169.4,M,-20.6,M,,*50
$GPRMC,172151.000,A,4000.7142,N,10515.6554,W,0.61,297.54,260416,,,A*76
$GPGGA,172152.000,4000.7143,N,10515.6555,W,6,02,99.99,169.4,M,-20.6,M,,*6C
$GPRMC,172152.000,V,,,,,0.59,302.16,260416,,,E*49
$GPGGA,172153.000,4000.7145,N,10515.6560,W,1,03,2.83,169.4,M,-20.6,M,,*52
$GPRMC,172153.000,A,4000.7145,N,10515.6560,W,0.68,298.95,260416,,,A*7F
$GPGGA,172154.000,4000.7144,N,10515.6558,W,1,03,2.84,169.4,M,-20.6,M,,*58
$GPRMC,172154.000,A,4000.7144,N,10515.6558,W,0.50,305.17,260416,,,A*76
$GPGGA,172155.220,4000.7141,N,10515.6550,W,1,04,2.41,169.5,M,-20.6,M,,*5B
$GPRMC,172155.220,A,4000.7141,N,10515.6550,W,0.20,41.47,260416,,,A*4B
$GPGGA,172157.000,4000.7148,N,10515.6558,W,1,04,2.41,169.5,M,-20.6,M,,*58
$GPRMC,172157.000,A,4000.7148,N,10515.6558,W,0.64,286.10,260416,,,A*73
$GPGGA,172158.000,4000.7155,N,10515.6565,W,1,04,2.41,169.8,M,-20.6,M,,*58
$GPRMC,172158.000,A,4000.7155,N,10515.6565,W,0.86,313.70,260416,,,A*79
$GPGGA,172159.000,4000.7156,N,10515.6573,W,1,04,2.41,169.8,M,-20.6,M,,*5D
$GPRMC,172159.000,A,4000.7156,N,10515.6573,W,1.02,292.77,260416,,,A*7E
$GPGGA,172200.000,4000.7160,N,10515.6574,W,1,04,2.41,169.8,M,-20.6,M,,*50
$GPRMC,172200.000,A,4000.7160,N,10515.6574,W,0.90,321.64,260416,,,A*72
$GPGGA,172201.000,4000.7131,N,10515.6567,W,1,04,2.41,175.9,M,-20.6,M,,*5B
$GPRMC,172201.000,A,4000.7131,N,10515.6567,W,0.55,320.79,260416,,,A*71
$GPGGA,172202.000,4000.7135,N,10515.6570,W,1,04,2.41,176.2,M,-20.6,M,,*52
$GPRMC,172202.000,A,4000.7135,N,10515.6570,W,0.66,323.18,260416,,,A*74
$GPGGA,172203.000,4000.7142,N,10515.6571,W,1,04,2.41,176.5,M,-20.6,M,,*55
$GPRMC,172203.000,A,4000.7142,N,10515.6571,W,0.87,351.22,260416,,,A*77
$GPGGA,172204.000,4000.7147,N,10515.6574,W,1,04,4.54,176.6,M,-20.6,M,,*53
$GPRMC,172204.000,A,4000.7147,N,10515.6574,W,0.88,344.77,260416,,,A*7B
$GPGGA,172205.000,4000.7153,N,10515.6578,W,1,04,2.41,176.9,M,-20.6,M,,*56
$GPRMC,172205.000,A,4000.7153,N,10515.6578,W,0.85,339.86,260416,,,A*7A
$GPGGA,172206.000,4000.7158,N,10515.6582,W,1,04,2.41,177.0,M,-20.6,M,,*53
$GPRMC,172206.000,A,4000.7158,N,10515.6582,W,0.78,324.15,260416,,,A*73
$GPGGA,172207.000,4000.7163,N,10515.6588,W,1,04,2.41,177.3,M,-20.6,M,,*53
$GPRMC,172207.000,A,4000.7163,N,10515.6588,W,0.93,320.99,260416,,,A*75
$GPGGA,172208.000,4000.7164,N,10515.6589,W,1,04,2.41,177.3,M,-20.6,M,,*5A
$GPRMC,172208.000,A,4000.7164,N,10515.6589,W,0.81,306.15,260416,,,A*7F
$GPGGA,172209.000,4000.7168,N,10515.6592,W,1,04,2.41,177.6,M,-20.6,M,,*58
$GPRMC,172209.000,A,4000.7168,N,10515.6592,W,0.90,320.77,260416,,,A*78
$GPGGA,172210.000,4000.7170,N,10515.6592,W,1,04,2.41,177.9,M,-20.6,M,,*56
$GPRMC,172210.000,A,4000.7170,N,10515.6592,W,0.83,327.14,260416,,,A*79
$GPGGA,172211.000,4000.7173,N,10515.6595,W,1,04,2.41,177.9,M,-20.6,M,,*53
$GPRMC,172211.000,A,4000.7173,N,10515.6595,W,0.90,322.33,260416,,,A*7E
$GPGGA,172212.000,4000.7174,N,10515.6596,W,1,04,2.41,177.9,M,-20.6,M,,*54
$GPRMC,172212.000,A,4000.7174,N,10515.6596,W,0.84,316.71,260416,,,A*7D
$GPGGA,172213.000,4000.7174,N,10515.6595,W,1,04,2.41,177.9,M,-20.6,M,,*56
$GPRMC,172213.000,A,4000.7174,N,10515.6595,W,0.73,330.21,260416,,,A*76
$GPGGA,172214.000,4000.7176,N,10515.6598,W,1,04,2.41,177.9,M,-20.6,M,,*5E
$GPRMC,172214.000,A,4000.7176,N,10515.6598,W,0.86,317.24,260416,,,A*74
$GPGGA,172215.000,4000.7176,N,10515.6598,W,1,04,2.41,177.9,M,-20.6,M,,*5F
$GPRMC,172215.000,A,4000.7176,N,10515.6598,W,0.79,319.23,260416,,,A*7C
$GPGGA,172216.000,4000.7176,N,10515.6602,W,1,04,2.41,177.9,M,-20.6,M,,*5C
$GPRMC,172216.000,A,4000.7176,N,10515.6602,W,0.79,300.31,260416,,,A*74
$GPGGA,172217.000,4000.7177,N,10515.6603,W,1,04,2.41,177.9,M,-20.6,M,,*5D
$GPRMC,172217.000,A,4000.7177,N,10515.6603,W,0.72,308.19,260416,,,A*7C
$GPGGA,172218.000,4000.7177,N,10515.6604,W,1,04,2.41,177.9,M,-20.6,M,,*55
$GPRMC,172218.000,A,4000.7177,N,10515.6604,W,0.66,306.86,260416,,,A*79
$GPGGA,172219.000,4000.7175,N,10515.6604,W,1,04,2.41,178.0,M,-20.6,M,,*50
$GPRMC,172219.000,A,4000.7175,N,10515.6604,W,0.42,291.11,260416,,,A*7D
$GPGGA,172220.000,4000.7176,N,10515.6605,W,1,04,2.42,178.2,M,-20.6,M,,*59
$GPRMC,172220.000,A,4000.7176,N,10515.6605,W,0.48,299.89,260416,,,A*76
$GPGGA,172221.000,4000.7177,N,10515.6606,W,1,04,2.42,178.2,M,-20.6,M,,*5A
$GPRMC,172221.000,A,4000.7177,N,10515.6606,W,0.48,316.38,260416,,,A*79
$GPGGA,172222.000,4000.7178,N,10515.6608,W,1,04,2.42,178.5,M,-20.6,M,,*5F
$GPRMC,172222.000,A,4000.7178,N,10515.6608,W,0.53,333.64,260416,,,A*7F
$GPGGA,172223.000,4000.7179,N,10515.6609,W,1,04,2.42,178.5,M,-20.6,M,,*5E
$GPRMC,172223.000,A,4000.7179,N,10515.6609,W,0.54,314.10,260416,,,A*7F
$GPGGA,172224.000,4000.7180,N,10515.6610,W,1,04,2.42,178.5,M,-20.6,M,,*57
$GPRMC,172224.000,A,4000.7180,N,10515.6610,W,0.53,328.44,260416,,,A*7F
$GPGGA,172225.000,4000.7182,N,10515.6611,W,1,04,2.42,178.5,M,-20.6,M,,*55
$GPRMC,172225.000,A,4000.7182,N,10515.6611,W,0.30,326.59,260416,,,A*7A
$GPGGA,172226.000,4000.7182,N,10515.6611,W,1,04,2.42,178.5,M,-20.6,M,,*56
$GPRMC,172226.000,A,4000.7182,N,10515.6611,W,0.28,320.68,260416,,,A*74
$GPGGA,172227.000,4000.7183,N,10515.6612,W,1,04,2.42,178.5,M,-20.6,M,,*55
$GPRMC,172227.000,A,4000.7183,N,10515.6612,W,0.35,0.80,260416,,,A*7C
$GPGGA,172228.000,4000.7184,N,10515.6612,W,1,04,4.60,178.5,M,-20.6,M,,*5B
$GPRMC,172228.000,A,4000.7184,N,10515.6612,W,0.41,353.73,260416,,,A*7E
$GPGGA,172229.000,4000.7185,N,10515.6612,W,1,04,4.60,178.5,M,-20.6,M,,*5B
$GPRMC,172229.000,A,4000.7185,N,10515.6612,W,0.52,328.40,260416,,,A*70
$GPGGA,172230.000,4000.7186,N,10515.6613,W,1,04,2.42,178.5,M,-20.6,M,,*57
$GPRMC,172230.000,A,4000.7186,N,10515.6613,W,0.36,338.90,260416,,,A*74
$GPGGA,172231.000,4000.7187,N,10515.6614,W,1,04,2.42,178.5,M,-20.6,M,,*50
$GPRMC,172231.000,A,4000.7187,N,10515.6614,W,0.46,322.25,260416,,,A*71
$GPGGA,172232.000,4000.7188,N,10515.6615,W,1,04,2.42,178.5,M,-20.6,M,,*5D
$GPRMC,172232.000,A,4000.7188,N,10515.6615,W,0.51,323.11,260416,,,A*7C
$GPGGA,172233.000,4000.7189,N,10515.6616,W,1,04,2.42,178.5,M,-20.6,M,,*5E
$GPRMC,172233.000,A,4000.7189,N,10515.6616,W,0.64,328.40,260416,,,A*76
$GPGGA,172234.000,4000.7188,N,10515.6614,W,1,04,2.42,178.8,M,-20.6,M,,*57
$GPRMC,172234.000,A,4000.7188,N,10515.6614,W,0.46,340.08,260416,,,A*70
$GPGGA,172235.000,4000.7189,N,10515.6617,W,1,04,2.42,179.0,M,-20.6,M,,*5D
$GPRMC,172235.000,A,4000.7189,N,10515.6617,W,0.54,324.03,260416,,,A*79
$GPGGA,172236.000,4000.7190,N,10515.6619,W,1,04,2.42,179.3,M,-20.6,M,,*5B
$GPRMC,172236.000,A,4000.7190,N,10515.6619,W,0.59,314.62,260416,,,A*75
$GPGGA,172237.000,4000.7191,N,10515.6621,W,1,04,2.42,179.5,M,-20.6,M,,*56
$GPRMC,172237.000,A,4000.7191,N,10515.6621,W,0.64,321.39,260416,,,A*78
$GPGGA,172238.000,4000.7191,N,10515.6624,W,1,04,2.42,179.8,M,-20.6,M,,*51
$GPRMC,172238.000,A,4000.7191,N,10515.6624,W,0.66,307.57,260416,,,A*7C
$GPGGA,172239.000,4000.7192,N,10515.6625,W,1,04,2.42,180.0,M,-20.6,M,,*5C
$GPRMC,172239.000,A,4000.7192,N,10515.6625,W,0.63,304.15,260416,,,A*7F
$GPGGA,172240.000,4000.7192,N,10515.6626,W,1,04,2.42,180.3,M,-20.6,M,,*52
$GPRMC,172240.000,A,4000.7192,N,10515.6626,W,0.54,306.22,260416,,,A*70
$GPGGA,172241.000,4000.7193,N,10515.6629,W,1,04,2.42,180.5,M,-20.6,M,,*5B
$GPRMC,172241.000,A,4000.7193,N,10515.6629,W,0.66,313.01,260416,,,A*7B
$GPGGA,172242.000,4000.7194,N,10515.6629,W,1,04,2.42,180.8,M,-20.6,M,,*52
$GPRMC,172242.000,A,4000.7194,N,10515.6629,W,0.53,311.97,260416,,,A*74
$GPGGA,172243.000,4000.7195,N,10515.6630,W,1,04,2.42,181.1,M,-20.6,M,,*52
$GPRMC,172243.000,A,4000.7195,N,10515.6630,W,0.55,327.42,260416,,,A*77
$GPGGA,172244.000,4000.7196,N,10515.6630,W,1,04,2.42,181.3,M,-20.6,M,,*54
$GPRMC,172244.000,A,4000.7196,N,10515.6630,W,0.49,326.31,260416,,,A*7B
$GPGGA,172245.000,4000.7198,N,10515.6631,W,1,04,2.42,181.3,M,-20.6,M,,*5A
$GPRMC,172245.000,A,4000.7198,N,10515.6631,W,0.50,333.35,260416,,,A*7D
$GPGGA,172246.000,4000.7199,N,10515.6632,W,1,04,2.42,181.3,M,-20.6,M,,*5B
$GPRMC,172246.000,A,4000.7199,N,10515.6632,W,0.51,327.18,260416,,,A*77
$GPGGA,172247.000,4000.7200,N,10515.6633,W,1,04,2.43,181.3,M,-20.6,M,,*59
$GPRMC,172247.000,A,4000.7200,N,10515.6633,W,0.44,318.53,260416,,,A*73
$GPGGA,172248.000,4000.7201,N,10515.6634,W,1,04,2.43,181.3,M,-20.6,M,,*50
$GPRMC,172248.000,A,4000.7201,N,10515.6634,W,0.53,341.06,260416,,,A*70
$GPGGA,172249.000,4000.7203,N,10515.6635,W,1,04,2.43,181.3,M,-20.6,M,,*52
$GPRMC,172249.000,A,4000.7203,N,10515.6635,W,0.39,324.60,260416,,,A*7D
$GPGGA,172250.000,4000.7204,N,10515.6635,W,1,04,2.43,181.3,M,-20.6,M,,*5D
$GPRMC,172250.000,A,4000.7204,N,10515.6635,W,0.41,325.68,260416,,,A*74
$GPGGA,172251.000,4000.7204,N,10515.6636,W,1,04,2.42,181.3,M,-20.6,M,,*5E
$GPRMC,172251.000,A,4000.7204,N,10515.6636,W,0.45,339.09,260416,,,A*78
$GPGGA,172252.000,4000.7206,N,10515.6637,W,1,04,2.43,181.4,M,-20.6,M,,*58
$GPRMC,172252.000,A,4000.7206,N,10515.6637,W,0.55,322.56,260416,,,A*79
$GPGGA,172253.000,4000.7207,N,10515.6638,W,1,04,2.42,181.4,M,-20.6,M,,*56
$GPRMC,172253.000,A,4000.7207,N,10515.6638,W,0.77,311.99,260416,,,A*75
$GPGGA,172254.000,4000.7209,N,10515.6642,W,1,04,2.43,181.6,M,-20.6,M,,*51
$GPRMC,172254.000,A,4000.7209,N,10515.6642,W,0.80,326.39,260416,,,A*77
$GPGGA,172255.000,4000.7211,N,10515.6644,W,1,04,2.43,181.9,M,-20.6,M,,*50
$GPRMC,172255.000,A,4000.7211,N,10515.6644,W,0.80,336.05,260416,,,A*77
$GPGGA,172256.000,4000.7211,N,10515.6647,W,1,04,2.43,182.1,M,-20.6,M,,*5B
$GPRMC,172256.000,A,4000.7211,N,10515.6647,W,0.70,329.07,260416,,,A*74
$GPGGA,172257.000,4000.7211,N,10515.6648,W,1,04,2.43,182.4,M,-20.6,M,,*50
$GPRMC,172257.000,A,4000.7211,N,10515.6648,W,0.62,323.27,260416,,,A*71
$GPGGA,172258.000,4000.7213,N,10515.6652,W,1,04,2.43,182.4,M,-20.6,M,,*56
$GPRMC,172258.000,A,4000.7213,N,10515.6652,W,0.72,324.76,260416,,,A*75
$GPGGA,172259.000,4000.7213,N,10515.6653,W,1,04,2.43,182.6,M,-20.6,M,,*54
$GPRMC,172259.000,A,4000.7213,N,10515.6653,W,0.60,318.36,260416,,,A*7D
$GPGGA,172300.000,4000.7213,N,10515.6655,W,1,04,2.43,182.6,M,-20.6,M,,*5F
$GPRMC,172300.000,A,4000.7213,N,10515.6655,W,0.53,312.79,260416,,,A*77
$GPGGA,172301.000,4000.7213,N,10515.6660,W,1,04,2.43,182.6,M,-20.6,M,,*58
$GPRMC,172301.000,A,4000.7213,N,10515.6660,W,0.61,300.80,260416,,,A*74
$GPGGA,172302.000,4000.7215,N,10515.6666,W,1,04,2.43,182.9,M,-20.6,M,,*54
$GPRMC,172302.000,A,4000.7215,N,10515.6666,W,0.93,305.85,260416,,,A*7A
$GPGGA,172303.000,4000.7216,N,10515.6669,W,1,04,2.43,182.9,M,-20.6,M,,*59
$GPRMC,172303.000,A,4000.7216,N,10515.6669,W,1.00,304.50,260416,,,A*75
$GPGGA,172304.000,4000.7216,N,10515.6669,W,1,04,2.43,183.1,M,-20.6,M,,*57
$GPRMC,172304.000,A,4000.7216,N,10515.6669,W,0.84,317.62,260416,,,A*7C
$GPGGA,172305.000,4000.7215,N,10515.6672,W,1,04,2.43,183.4,M,-20.6,M,,*5A
$GPRMC,172305.000,A,4000.7215,N,10515.6672,W,0.84,304.83,260416,,,A*79
$GPGGA,172306.000,4000.7215,N,10515.6674,W,1,04,2.43,183.6,M,-20.6,M,,*5D
$GPRMC,172306.000,A,4000.7215,N,10515.6674,W,0.78,308.57,260416,,,A*7A
$GPGGA,172307.000,4000.7215,N,10515.6676,W,1,04,2.43,183.9,M,-20.6,M,,*51
$GPRMC,172307.000,A,4000.7215,N,10515.6676,W,0.75,318.12,260416,,,A*74
$GPGGA,172308.000,4000.7215,N,10515.6678,W,1,04,2.43,184.1,M,-20.6,M,,*5F
$GPRMC,172308.000,A,4000.7215,N,10515.6678,W,0.68,314.89,260416,,,A*77
$GPGGA,172309.000,4000.7215,N,10515.6679,W,1,04,2.43,184.4,M,-20.6,M,,*5A
$GPRMC,172309.000,A,4000.7215,N,10515.6679,W,0.64,321.21,260416,,,A*7F
$GPGGA,172310.000,4000.7215,N,10515.6683,W,1,04,2.43,184.6,M,-20.6,M,,*55
$GPRMC,172310.000,A,4000.7215,N,10515.6683,W,0.71,303.94,260416,,,A*78
$GPGGA,172311.000,4000.7214,N,10515.6687,W,1,04,2.43,184.9,M,-20.6,M,,*5E
$GPRMC,172311.000,A,4000.7214,N,10515.6687,W,0.77,297.30,260416,,,A*78
$GPGGA,172312.000,4000.7215,N,10515.6689,W,1,04,2.43,185.1,M,-20.6,M,,*5B
$GPRMC,172312.000,A,4000.7215,N,10515.6689,W,0.83,302.74,260416,,,A*72
$GPGGA,172313.000,4000.7214,N,10515.6690,W,1,04,2.44,185.4,M,-20.6,M,,*51
$GPRMC,172313.000,A,4000.7214,N,10515.6690,W,0.67,305.03,260416,,,A*77
$GPGGA,172314.000,4000.7214,N,10515.6692,W,1,04,2.43,185.6,M,-20.6,M,,*51
$GPRMC,172314.000,A,4000.7214,N,10515.6692,W,0.65,297.09,260416,,,A*70
$GPGGA,172315.000,4000.7214,N,10515.6693,W,1,04,2.43,185.9,M,-20.6,M,,*5E
$GPRMC,172315.000,A,4000.7214,N,10515.6693,W,0.56,317.41,260416,,,A*75
$GPGGA,172316.000,4000.7215,N,10515.6695,W,1,04,2.43,186.1,M,-20.6,M,,*51
$GPRMC,172316.000,A,4000.7215,N,10515.6695,W,0.64,325.80,260416,,,A*7C
$GPGGA,172317.000,4000.7214,N,10515.6697,W,1,04,2.43,186.4,M,-20.6,M,,*56
$GPRMC,172317.000,A,4000.7214,N,10515.6697,W,0.43,313.18,260416,,,A*7F
$GPGGA,172318.000,4000.7214,N,10515.6699,W,1,04,2.44,186.6,M,-20.6,M,,*52
$GPRMC,172318.000,A,4000.7214,N,10515.6699,W,0.44,306.69,260416,,,A*7B
$GPGGA,172319.000,4000.7215,N,10515.6700,W,1,04,2.43,186.8,M,-20.6,M,,*5A
$GPRMC,172319.000,A,4000.7215,N,10515.6700,W,0.51,325.43,260416,,,A*77
$GPGGA,172320.000,4000.7215,N,10515.6708,W,1,04,2.43,187.1,M,-20.6,M,,*50
$GPRMC,172320.000,A,4000.7215,N,10515.6708,W,0.80,294.08,260416,,,A*7D
$GPGGA,172321.000,4000.7216,N,10515.6714,W,1,04,2.44,187.3,M,-20.6,M,,*5A
$GPRMC,172321.000,A,4000.7216,N,10515.6714,W,0.86,300.83,260416,,,A*7B
$GPGGA,172322.000,4000.7217,N,10515.6718,W,1,04,2.44,187.6,M,-20.6,M,,*51
$GPRMC,172322.000,A,4000.7217,N,10515.6718,W,0.89,293.72,260416,,,A*7F
$GPGGA,172323.000,4000.7217,N,10515.6721,W,1,04,2.44,187.9,M,-20.6,M,,*55
$GPRMC,172323.000,A,4000.7217,N,10515.6721,W,0.77,293.91,260416,,,A*78
$GPGGA,172324.000,4000.7219,N,10515.6725,W,1,04,2.44,188.1,M,-20.6,M,,*5F
$GPRMC,172324.000,A,4000.7219,N,10515.6725,W,0.84,303.12,260416,,,A*7A
$GPGGA,172325.000,4000.7220,N,10515.6729,W,1,04,2.44,188.4,M,-20.6,M,,*5D
$GPRMC,172325.000,A,4000.7220,N,10515.6729,W,0.82,302.34,260416,,,A*7E
$GPGGA,172326.000,4000.7222,N,10515.6730,W,1,04,2.44,188.4,M,-20.6,M,,*54
$GPRMC,172326.000,A,4000.7222,N,10515.6730,W,0.71,312.80,260416,,,A*75
$GPGGA,172327.000,4000.7224,N,10515.6732,W,1,04,2.44,188.4,M,-20.6,M,,*51
$GPRMC,172327.000,A,4000.7224,N,10515.6732,W,0.77,309.68,260416,,,A*7A
$GPGGA,172328.000,4000.7224,N,10515.6732,W,1,04,2.44,188.7,M,-20.6,M,,*5D
$GPRMC,172328.000,A,4000.7224,N,10515.6732,W,0.54,308.07,260416,,,A*7C
$GPGGA,172329.000,4000.7226,N,10515.6734,W,1,04,2.44,188.9,M,-20.6,M,,*56
$GPRMC,172329.000,A,4000.7226,N,10515.6734,W,0.55,315.22,260416,,,A*73
$GPGGA,172330.000,4000.7226,N,10515.6737,W,1,04,2.44,189.2,M,-20.6,M,,*57
$GPRMC,172330.000,A,4000.7226,N,10515.6737,W,0.46,303.67,260416,,,A*7C
$GPGGA,172331.000,4000.7226,N,10515.6741,W,1,04,2.44,189.5,M,-20.6,M,,*50
$GPRMC,172331.000,A,4000.7226,N,10515.6741,W,0.55,296.32,260416,,,A*73
$GPGGA,172332.000,4000.7227,N,10515.6743,W,1,04,2.44,189.5,M,-20.6,M,,*50
$GPRMC,172332.000,A,4000.7227,N,10515.6743,W,0.49,305.72,260416,,,A*71
$GPGGA,172333.000,4000.7228,N,10515.6744,W,1,04,2.44,189.5,M,-20.6,M,,*59
$GPRMC,172333.000,A,4000.7228,N,10515.6744,W,0.46,315.33,260416,,,A*73
$GPGGA,172334.000,4000.7229,N,10515.6746,W,1,04,2.44,189.5,M,-20.6,M,,*5D
$GPRMC,172334.000,A,4000.7229,N,10515.6746,W,0.49,308.49,260416,,,A*79
$GPGGA,172335.000,4000.7230,N,10515.6747,W,1,04,2.44,189.5,M,-20.6,M,,*55
$GPRMC,172335.000,A,4000.7230,N,10515.6747,W,0.74,307.12,260416,,,A*7E
$GPGGA,172336.000,4000.7231,N,10515.6748,W,1,04,2.44,189.7,M,-20.6,M,,*5A
$GPRMC,172336.000,A,4000.7231,N,10515.6748,W,0.65,325.05,260416,,,A*75
$GPGGA,172337.000,4000.7233,N,10515.6749,W,1,04,2.44,190.0,M,-20.6,M,,*57
$GPRMC,172337.000,A,4000.7233,N,10515.6749,W,0.67,330.70,260416,,,A*73
$GPGGA,172338.000,4000.7235,N,10515.6752,W,1,04,2.44,190.0,M,-20.6,M,,*54
$GPRMC,172338.000,A,4000.7235,N,10515.6752,W,0.66,327.43,260416,,,A*77
$GPGGA,172339.000,4000.7236,N,10515.6755,W,1,04,2.44,190.1,M,-20.6,M,,*50
$GPRMC,172339.000,A,4000.7236,N,10515.6755,W,0.64,323.12,260416,,,A*70
$GPGGA,172340.000,4000.7237,N,10515.6756,W,1,04,2.44,190.1,M,-20.6,M,,*5C
$GPRMC,172340.000,A,4000.7237,N,10515.6756,W,0.55,335.09,260416,,,A*73
$GPGGA,172341.000,4000.7238,N,10515.6760,W,1,04,2.44,190.4,M,-20.6,M,,*52
$GPRMC,172341.000,A,4000.7238,N,10515.6760,W,0.57,307.57,260416,,,A*70
$GPGGA,172342.000,4000.7238,N,10515.6762,W,1,04,2.44,190.6,M,-20.6,M,,*51
$GPRMC,172342.000,A,4000.7238,N,10515.6762,W,0.41,306.44,260416,,,A*75
$GPGGA,172343.000,4000.7240,N,10515.6764,W,1,04,2.44,190.9,M,-20.6,M,,*56
$GPRMC,172343.000,A,4000.7240,N,10515.6764,W,0.37,316.06,260416,,,A*7B
$GPGGA,172344.000,4000.7241,N,10515.6765,W,1,04,2.44,190.9,M,-20.6,M,,*51
$GPRMC,172344.000,A,4000.7241,N,10515.6765,W,0.47,338.64,260416,,,A*73
$GPGGA,172345.000,4000.7242,N,10515.6766,W,1,04,2.44,190.9,M,-20.6,M,,*50
$GPRMC,172345.000,A,4000.7242,N,10515.6766,W,0.42,340.15,260416,,,A*7E
$GPGGA,172346.000,4000.7243,N,10515.6767,W,1,04,2.44,190.9,M,-20.6,M,,*53
$GPRMC,172346.000,A,4000.7243,N,10515.6767,W,0.50,329.40,260416,,,A*71
$GPGGA,172347.000,4000.7245,N,10515.6768,W,1,04,2.44,190.9,M,-20.6,M,,*5B
$GPRMC,172347.000,A,4000.7245,N,10515.6768,W,0.52,317.83,260416,,,A*79
$GPGGA,172348.000,4000.7246,N,10515.6769,W,1,04,2.44,190.9,M,-20.6,M,,*56
$GPRMC,172348.000,A,4000.7246,N,10515.6769,W,0.71,314.39,260416,,,A*77
$GPGGA,172349.000,4000.7246,N,10515.6771,W,1,04,2.44,191.2,M,-20.6,M,,*54
$GPRMC,172349.000,A,4000.7246,N,10515.6771,W,0.65,312.43,260416,,,A*71
$GPGGA,172350.000,4000.7248,N,10515.6775,W,1,04,2.44,191.5,M,-20.6,M,,*51
$GPRMC,172350.000,A,4000.7248,N,10515.6775,W,0.81,318.71,260416,,,A*72
$GPGGA,172351.000,4000.7249,N,10515.6779,W,1,04,2.45,191.7,M,-20.6,M,,*5E
$GPRMC,172351.000,A,4000.7249,N,10515.6779,W,0.79,309.30,260416,,,A*7C
$GPGGA,172352.000,4000.7250,N,10515.6779,W,1,04,2.45,191.7,M,-20.6,M,,*55
$GPRMC,172352.000,A,4000.7250,N,10515.6779,W,0.69,324.98,260416,,,A*7B
$GPGGA,172353.000,4000.7251,N,10515.6779,W,1,04,2.45,192.0,M,-20.6,M,,*51
$GPRMC,172353.000,A,4000.7251,N,10515.6779,W,0.54,330.10,260416,,,A*70
$GPGGA,172354.000,4000.7251,N,10515.6781,W,1,04,2.45,192.3,M,-20.6,M,,*52
$GPRMC,172354.000,A,4000.7251,N,10515.6781,W,0.57,324.18,260416,,,A*7E
$GPGGA,172355.000,4000.7253,N,10515.6783,W,1,04,2.45,192.3,M,-20.6,M,,*53
$GPRMC,172355.000,A,4000.7253,N,10515.6783,W,0.64,330.81,260416,,,A*7A
$GPGGA,172356.000,4000.7254,N,10515.6784,W,1,04,2.45,192.6,M,-20.6,M,,*55
$GPRMC,172356.000,A,4000.7254,N,10515.6784,W,0.62,336.13,260416,,,A*72
$GPGGA,172357.000,4000.7255,N,10515.6785,W,1,04,2.45,192.8,M,-20.6,M,,*5A
$GPRMC,172357.000,A,4000.7255,N,10515.6785,W,0.54,339.19,260416,,,A*73
$GPGGA,172358.000,4000.7256,N,10515.6788,W,1,04,2.45,193.1,M,-20.6,M,,*53
$GPRMC,172358.000,A,4000.7256,N,10515.6788,W,0.51,329.21,260416,,,A*7D
$GPGGA,172359.000,4000.7257,N,10515.6791,W,1,04,2.45,193.3,M,-20.6,M,,*59
$GPRMC,172359.000,A,4000.7257,N,10515.6791,W,0.52,321.34,260416,,,A*7A
$GPGGA,172400.000,4000.7259,N,10515.6795,W,1,04,2.45,193.6,M,-20.6,M,,*5D
$GPRMC,172400.000,A,4000.7259,N,10515.6795,W,0.69,319.39,260416,,,A*75
$GPGGA,172401.000,4000.7260,N,10515.6798,W,1,04,2.45,193.8,M,-20.6,M,,*55
$GPRMC,172401.000,A,4000.7260,N,10515.6798,W,0.75,307.70,260416,,,A*7C
$GPGGA,172402.000,4000.7260,N,10515.6798,W,1,04,2.45,194.1,M,-20.6,M,,*58
$GPRMC,172402.000,A,4000.7260,N,10515.6798,W,0.52,306.49,260416,,,A*71
$GPGGA,172403.000,4000.7261,N,10515.6800,W,1,04,2.45,194.4,M,-20.6,M,,*53
$GPRMC,172403.000,A,4000.7261,N,10515.6800,W,0.48,304.05,260416,,,A*7E
$GPGGA,172404.000,4000.7262,N,10515.6801,W,1,04,2.45,194.4,M,-20.6,M,,*56
$GPRMC,172404.000,A,4000.7262,N,10515.6801,W,0.50,321.03,260416,,,A*73
$GPGGA,172405.000,4000.7263,N,10515.6803,W,1,04,2.45,194.4,M,-20.6,M,,*54
$GPRMC,172405.000,A,4000.7263,N,10515.6803,W,0.46,322.65,260416,,,A*75
$GPGGA,172406.000,4000.7264,N,10515.6804,W,1,04,2.45,194.4,M,-20.6,M,,*57
$GPRMC,172406.000,A,4000.7264,N,10515.6804,W,0.46,308.31,260416,,,A*7F
$GPGGA,172407.000,4000.7265,N,10515.6805,W,1,04,2.45,194.4,M,-20.6,M,,*56
$GPRMC,172407.000,A,4000.7265,N,10515.6805,W,0.82,334.34,260416,,,A*7C
$GPGGA,172408.000,4000.7268,N,10515.6809,W,1,04,2.45,194.5,M,-20.6,M,,*59
$GPRMC,172408.000,A,4000.7268,N,10515.6809,W,0.78,321.36,260416,,,A*71
$GPGGA,172409.000,4000.7271,N,10515.6813,W,1,04,2.45,194.7,M,-20.6,M,,*59
$GPRMC,172409.000,A,4000.7271,N,10515.6813,W,0.78,328.92,260416,,,A*74
$GPGGA,172410.000,4000.7273,N,10515.6818,W,1,04,2.45,195.0,M,-20.6,M,,*5E
$GPRMC,172410.000,A,4000.7273,N,10515.6818,W,0.88,314.83,260416,,,A*75
$GPGGA,172411.000,4000.7275,N,10515.6821,W,1,04,2.45,195.3,M,-20.6,M,,*50
$GPRMC,172411.000,A,4000.7275,N,10515.6821,W,0.88,312.71,260416,,,A*73
$GPGGA,172412.000,4000.7277,N,10515.6826,W,1,04,2.45,195.5,M,-20.6,M,,*50
$GPRMC,172412.000,A,4000.7277,N,10515.6826,W,0.91,311.58,260416,,,A*75
$GPGGA,172413.000,4000.7279,N,10515.6829,W,1,04,2.45,195.5,M,-20.6,M,,*50
$GPRMC,172413.000,A,4000.7279,N,10515.6829,W,0.84,311.67,260416,,,A*7D
$GPGGA,172414.000,4000.7281,N,10515.6832,W,1,04,2.45,195.8,M,-20.6,M,,*57
$GPRMC,172414.000,A,4000.7281,N,10515.6832,W,0.71,311.66,260416,,,A*7C
$GPGGA,172415.000,4000.7284,N,10515.6836,W,1,04,2.45,196.1,M,-20.6,M,,*5D
$GPRMC,172415.000,A,4000.7284,N,10515.6836,W,0.80,313.12,260416,,,A*73
$GPGGA,172416.000,4000.7286,N,10515.6840,W,1,04,2.45,196.1,M,-20.6,M,,*5D
$GPRMC,172416.000,A,4000.7286,N,10515.6840,W,0.77,304.27,260416,,,A*7B
$GPGGA,172417.000,4000.7288,N,10515.6841,W,1,04,2.45,196.4,M,-20.6,M,,*56
$GPRMC,172417.000,A,4000.7288,N,10515.6841,W,0.67,312.61,260416,,,A*71
$GPGGA,172418.000,4000.7289,N,10515.6845,W,1,04,2.46,196.6,M,-20.6,M,,*5D
$GPRMC,172418.000,A,4000.7289,N,10515.6845,W,0.72,291.24,260416,,,A*74
$GPGGA,172419.000,4000.7292,N,10515.6847,W,1,04,2.45,196.7,M,-20.6,M,,*56
$GPRMC,172419.000,A,4000.7292,N,10515.6847,W,0.73,301.91,260416,,,A*7A
$GPGGA,172420.000,4000.7294,N,10515.6848,W,1,04,2.46,196.7,M,-20.6,M,,*56
$GPRMC,172420.000,A,4000.7294,N,10515.6848,W,0.64,315.99,260416,,,A*72
$GPGGA,172421.000,4000.7297,N,10515.6849,W,1,04,2.45,196.7,M,-20.6,M,,*56
$GPRMC,172421.000,A,4000.7297,N,10515.6849,W,0.59,326.18,260416,,,A*76
$GPGGA,172422.000,4000.7299,N,10515.6849,W,1,04,2.46,196.7,M,-20.6,M,,*58
$GPRMC,172422.000,A,4000.7299,N,10515.6849,W,0.54,335.76,260416,,,A*7C
$GPGGA,172423.000,4000.7303,N,10515.6854,W,1,04,2.46,196.7,M,-20.6,M,,*57
$GPRMC,172423.000,A,4000.7303,N,10515.6854,W,0.87,323.05,260416,,,A*7E
$GPGGA,172424.000,4000.7306,N,10515.6857,W,1,04,2.46,197.0,M,-20.6,M,,*50
$GPRMC,172424.000,A,4000.7306,N,10515.6857,W,0.90,320.02,260416,,,A*7D
$GPGGA,172425.000,4000.7306,N,10515.6855,W,1,04,2.46,197.3,M,-20.6,M,,*50
$GPRMC,172425.000,A,4000.7306,N,10515.6855,W,0.58,326.15,260416,,,A*7A
$GPGGA,172426.000,4000.7307,N,10515.6856,W,1,04,2.46,197.3,M,-20.6,M,,*51
$GPRMC,172426.000,A,4000.7307,N,10515.6856,W,0.49,322.94,260416,,,A*76
$GPGGA,172427.000,4000.7307,N,10515.6857,W,1,04,2.46,197.5,M,-20.6,M,,*57
$GPRMC,172427.000,A,4000.7307,N,10515.6857,W,0.44,305.32,260416,,,A*72
$GPGGA,172428.000,4000.7309,N,10515.6859,W,1,04,2.46,197.8,M,-20.6,M,,*55
$GPRMC,172428.000,A,4000.7309,N,10515.6859,W,0.57,309.62,260416,,,A*76
$GPGGA,172429.000,4000.7310,N,10515.6861,W,1,04,2.46,197.8,M,-20.6,M,,*57
$GPRMC,172429.000,A,4000.7310,N,10515.6861,W,0.52,313.20,260416,,,A*7C
$GPGGA,172430.000,4000.7311,N,10515.6862,W,1,04,2.46,197.8,M,-20.6,M,,*5D
$GPRMC,172430.000,A,4000.7311,N,10515.6862,W,0.78,285.27,260416,,,A*77
$GPGGA,172431.000,4000.7311,N,10515.6861,W,1,04,2.46,197.8,M,-20.6,M,,*5F
$GPRMC,172431.000,A,4000.7311,N,10515.6861,W,0.55,308.26,260416,,,A*7F
$GPGGA,172432.000,4000.7312,N,10515.6862,W,1,04,2.46,197.8,M,-20.6,M,,*5C
$GPRMC,172432.000,A,4000.7312,N,10515.6862,W,0.47,306.19,260416,,,A*7D
$GPGGA,172433.000,4000.7313,N,10515.6862,W,1,04,2.46,197.8,M,-20.6,M,,*5C
$GPRMC,172433.000,A,4000.7313,N,10515.6862,W,0.48,324.34,260416,,,A*7D
$GPGGA,172434.000,4000.7315,N,10515.6864,W,1,04,2.46,198.1,M,-20.6,M,,*5D
$GPRMC,172434.000,A,4000.7315,N,10515.6864,W,0.53,327.34,260416,,,A*73
$GPGGA,172435.000,4000.7316,N,10515.6865,W,1,04,2.46,198.1,M,-20.6,M,,*5E
$GPRMC,172435.000,A,4000.7316,N,10515.6865,W,0.49,320.74,260416,,,A*78
$GPGGA,172436.000,4000.7317,N,10515.6866,W,1,04,2.46,198.1,M,-20.6,M,,*5F
$GPRMC,172436.000,A,4000.7317,N,10515.6866,W,0.31,341.30,260416,,,A*71
$GPGGA,172437.000,4000.7318,N,10515.6866,W,1,04,2.46,198.1,M,-20.6,M,,*51
$GPRMC,172437.000,A,4000.7318,N,10515.6866,W,0.49,327.28,260416,,,A*79
$GPGGA,172438.000,4000.7319,N,10515.6867,W,1,04,2.46,198.1,M,-20.6,M,,*5E
$GPRMC,172438.000,A,4000.7319,N,10515.6867,W,0.39,328.82,260416,,,A*7E
$GPGGA,172439.000,4000.7320,N,10515.6868,W,1,04,2.46,198.1,M,-20.6,M,,*5A
$GPRMC,172439.000,A,4000.7320,N,10515.6868,W,0.45,325.60,260416,,,A*70
$GPGGA,172440.000,4000.7321,N,10515.6869,W,1,04,2.46,198.1,M,-20.6,M,,*54
$GPRMC,172440.000,A,4000.7321,N,10515.6869,W,0.68,326.90,260416,,,A*7D
$GPGGA,172441.000,4000.7323,N,10515.6871,W,1,04,2.46,198.4,M,-20.6,M,,*5B
$GPRMC,172441.000,A,4000.7323,N,10515.6871,W,0.76,321.98,260416,,,A*77
$GPGGA,172442.000,4000.7324,N,10515.6873,W,1,04,2.46,198.4,M,-20.6,M,,*5D
$GPRMC,172442.000,A,4000.7324,N,10515.6873,W,0.69,319.63,260416,,,A*70
$GPGGA,172443.000,4000.7326,N,10515.6877,W,1,04,2.46,198.4,M,-20.6,M,,*5A
$GPRMC,172443.000,A,4000.7326,N,10515.6877,W,0.88,310.51,260416,,,A*70
$GPGGA,172444.000,4000.7327,N,10515.6879,W,1,04,2.46,198.4,M,-20.6,M,,*52
$GPRMC,172444.000,A,4000.7327,N,10515.6879,W,0.79,308.87,260416,,,A*74
$GPGGA,172445.000,4000.7330,N,10515.6882,W,1,04,2.46,198.7,M,-20.6,M,,*52
$GPRMC,172445.000,A,4000.7330,N,10515.6882,W,0.96,315.19,260416,,,A*7D
$GPGGA,172446.000,4000.7330,N,10515.6884,W,1,04,2.46,198.7,M,-20.6,M,,*57
$GPRMC,172446.000,A,4000.7330,N,10515.6884,W,0.78,306.26,260416,,,A*76
$GPGGA,172447.000,4000.7332,N,10515.6886,W,1,04,2.46,198.7,M,-20.6,M,,*56
$GPRMC,172447.000,A,4000.7332,N,10515.6886,W,0.85,308.47,260416,,,A*7C
$GPGGA,172448.000,4000.7335,N,10515.6894,W,1,04,2.46,199.0,M,-20.6,M,,*5B
$GPRMC,172448.000,A,4000.7335,N,10515.6894,W,1.24,306.62,260416,,,A*74
$GPGGA,172449.000,4000.7337,N,10515.6894,W,1,04,2.47,199.3,M,-20.6,M,,*5A
$GPRMC,172449.000,A,4000.7337,N,10515.6894,W,0.89,322.64,260416,,,A*71
$GPGGA,172450.000,4000.7338,N,10515.6897,W,1,04,2.47,199.5,M,-20.6,M,,*58
$GPRMC,172450.000,A,4000.7338,N,10515.6897,W,0.86,320.06,260416,,,A*7C
$GPGGA,172451.000,4000.7339,N,10515.6900,W,1,04,2.47,199.5,M,-20.6,M,,*57
$GPRMC,172451.000,A,4000.7339,N,10515.6900,W,0.75,323.79,260416,,,A*74
$GPGGA,172452.000,4000.7340,N,10515.6902,W,1,04,2.47,199.5,M,-20.6,M,,*58
$GPRMC,172452.000,A,4000.7340,N,10515.6902,W,0.68,320.60,260416,,,A*7C
$GPGGA,172453.000,4000.7340,N,10515.6904,W,1,04,2.47,199.8,M,-20.6,M,,*52
$GPRMC,172453.000,A,4000.7340,N,10515.6904,W,0.59,307.65,260416,,,A*79
$GPGGA,172454.000,4000.7343,N,10515.6907,W,1,04,2.47,200.1,M,-20.6,M,,*5F
$GPRMC,172454.000,A,4000.7343,N,10515.6907,W,0.72,309.86,260416,,,A*74
$GPGGA,172455.000,4000.7344,N,10515.6910,W,1,04,2.47,200.1,M,-20.6,M,,*5F
$GPRMC,172455.000,A,4000.7344,N,10515.6910,W,0.73,298.61,260416,,,A*75
$GPGGA,172456.000,4000.7344,N,10515.6913,W,1,04,2.47,200.3,M,-20.6,M,,*5D
$GPRMC,172456.000,A,4000.7344,N,10515.6913,W,0.68,286.72,260416,,,A*72
$GPGGA,172457.000,4000.7348,N,10515.6915,W,1,04,2.47,200.6,M,-20.6,M,,*53
$GPRMC,172457.000,A,4000.7348,N,10515.6915,W,0.80,310.82,260416,,,A*7E
$GPGGA,172458.000,4000.7349,N,10515.6917,W,1,04,2.47,200.9,M,-20.6,M,,*50
$GPRMC,172458.000,A,4000.7349,N,10515.6917,W,0.79,309.61,260416,,,A*71
$GPGGA,172459.000,4000.7350,N,10515.6918,W,1,04,2.47,201.1,M,-20.6,M,,*5F
$GPRMC,172459.000,A,4000.7350,N,10515.6918,W,0.77,314.56,260416,,,A*71
$GPGGA,172500.000,4000.7351,N,10515.6921,W,1,04,2.47,201.1,M,-20.6,M,,*59
$GPRMC,172500.000,A,4000.7351,N,10515.6921,W,0.83,301.80,260416,,,A*73
$GPGGA,172501.000,4000.7352,N,10515.6920,W,1,04,2.47,201.1,M,-20.6,M,,*5A
$GPRMC,172501.000,A,4000.7352,N,10515.6920,W,0.59,308.82,260416,,,A*7C
$GPGGA,172502.000,4000.7352,N,10515.6921,W,1,04,2.47,201.2,M,-20.6,M,,*5B
$GPRMC,172502.000,A,4000.7352,N,10515.6921,W,0.59,298.70,260416,,,A*7B
$GPGGA,172503.000,4000.7354,N,10515.6923,W,1,04,2.47,201.2,M,-20.6,M,,*5E
$GPRMC,172503.000,A,4000.7354,N,10515.6923,W,0.62,301.45,260416,,,A*71
$GPGGA,172504.000,4000.7353,N,10515.6924,W,1,04,2.47,201.2,M,-20.6,M,,*59
$GPRMC,172504.000,A,4000.7353,N,10515.6924,W,0.50,291.94,260416,,,A*73
$GPGGA,172505.000,4000.7357,N,10515.6923,W,1,04,2.47,201.2,M,-20.6,M,,*5B
$GPRMC,172505.000,A,4000.7357,N,10515.6923,W,0.58,330.51,260416,,,A*7A
$GPGGA,172506.000,4000.7359,N,10515.6926,W,1,04,2.47,201.2,M,-20.6,M,,*53
$GPRMC,172506.000,A,4000.7359,N,10515.6926,W,0.65,317.32,260416,,,A*7C
$GPGGA,172507.000,4000.7363,N,10515.6929,W,1,04,2.47,201.2,M,-20.6,M,,*54
$GPRMC,172507.000,A,4000.7363,N,10515.6929,W,1.00,317.75,260416,,,A*7A
$GPGGA,172508.000,4000.7364,N,10515.6932,W,1,04,2.47,201.5,M,-20.6,M,,*51
$GPRMC,172508.000,A,4000.7364,N,10515.6932,W,0.94,307.19,260416,,,A*7F
$GPGGA,172509.000,4000.7366,N,10515.6934,W,1,04,2.47,201.5,M,-20.6,M,,*54
$GPRMC,172509.000,A,4000.7366,N,10515.6934,W,1.00,305.05,260416,,,A*79
$GPGGA,172510.000,4000.7367,N,10515.6936,W,1,04,2.47,201.8,M,-20.6,M,,*52
$GPRMC,172510.000,A,4000.7367,N,10515.6936,W,0.99,310.11,260416,,,A*72
$GPGGA,172511.000,4000.7368,N,10515.6935,W,1,04,2.47,201.8,M,-20.6,M,,*5F
$GPRMC,172511.000,A,4000.7368,N,10515.6935,W,0.70,316.05,260416,,,A*7B
$GPGGA,172512.000,4000.7368,N,10515.6937,W,1,04,2.47,202.1,M,-20.6,M,,*54
$GPRMC,172512.000,A,4000.7368,N,10515.6937,W,0.64,304.80,260416,,,A*71
$GPGGA,172513.000,4000.7369,N,10515.6937,W,1,04,2.47,202.1,M,-20.6,M,,*54
$GPRMC,172513.000,A,4000.7369,N,10515.6937,W,0.58,319.63,260416,,,A*7F
$GPGGA,172514.000,4000.7371,N,10515.6941,W,1,04,2.47,202.1,M,-20.6,M,,*5B
$GPRMC,172514.000,A,4000.7371,N,10515.6941,W,0.79,317.57,260416,,,A*7A
$GPGGA,172515.000,4000.7373,N,10515.6943,W,1,04,2.47,202.1,M,-20.6,M,,*5A
$GPRMC,172515.000,A,4000.7373,N,10515.6943,W,0.75,313.71,260416,,,A*77
$GPGGA,172516.000,4000.7373,N,10515.6943,W,1,04,2.48,202.1,M,-20.6,M,,*56
$GPRMC,172516.000,A,4000.7373,N,10515.6943,W,0.57,322.41,260416,,,A*75
$GPGGA,172517.000,4000.7377,N,10515.6947,W,1,04,2.47,202.2,M,-20.6,M,,*5B
$GPRMC,172517.000,A,4000.7377,N,10515.6947,W,0.82,325.69,260416,,,A*71
$GPGGA,172518.000,4000.7378,N,10515.6949,W,1,04,2.47,202.4,M,-20.6,M,,*53
$GPRMC,172518.000,A,4000.7378,N,10515.6949,W,0.65,320.42,260416,,,A*7A
$GPGGA,172519.000,4000.7380,N,10515.6952,W,1,04,2.48,202.7,M,-20.6,M,,*53
$GPRMC,172519.000,A,4000.7380,N,10515.6952,W,0.78,321.90,260416,,,A*74
$GPGGA,172520.000,4000.7382,N,10515.6954,W,1,04,2.48,203.0,M,-20.6,M,,*5B
$GPRMC,172520.000,A,4000.7382,N,10515.6954,W,0.67,326.48,260416,,,A*76
$GPGGA,172521.000,4000.7383,N,10515.6956,W,1,04,2.48,203.0,M,-20.6,M,,*59
$GPRMC,172521.000,A,4000.7383,N,10515.6956,W,0.58,330.83,260416,,,A*78
$GPGGA,172522.000,4000.7385,N,10515.6959,W,1,04,2.47,203.1,M,-20.6,M,,*5D
$GPRMC,172522.000,A,4000.7385,N,10515.6959,W,0.65,322.50,260416,,,A*71
$GPGGA,172523.000,4000.7388,N,10515.6962,W,1,04,2.48,203.1,M,-20.6,M,,*56
$GPRMC,172523.000,A,4000.7388,N,10515.6962,W,0.81,323.18,260416,,,A*72
$GPGGA,172524.000,4000.7388,N,10515.6963,W,1,04,2.48,203.1,M,-20.6,M,,*50
$GPRMC,172524.000,A,4000.7388,N,10515.6963,W,0.65,330.59,260416,,,A*79
$GPGGA,172525.000,4000.7389,N,10515.6965,W,2,04,2.48,203.1,M,-20.6,M,0000,0000*55
$GPRMC,172525.000,A,4000.7389,N,10515.6965,W,0.59,320.35,260416,,,D*7E
$GPGGA,172526.000,4000.7391,N,10515.6968,W,2,04,2.48,203.1,M,-20.6,M,0000,0000*52
$GPRMC,172526.000,A,4000.7391,N,10515.6968,W,0.71,318.23,260416,,,D*7F
$GPGGA,172527.000,4000.7392,N,10515.6971,W,2,04,2.48,203.2,M,-20.6,M,0000,0000*5B
$GPRMC,172527.000,A,4000.7392,N,10515.6971,W,0.72,320.84,260416,,,D*70
$GPGGA,172528.000,4000.7392,N,10515.6971,W,2,04,2.48,203.2,M,-20.6,M,0000,0000*54
$GPRMC,172528.000,A,4000.7392,N,10515.6971,W,0.59,335.35,260416,,,D*78
$GPGGA,172529.000,4000.7392,N,10515.6972,W,2,04,2.48,203.2,M,-20.6,M,0000,0000*56
$GPRMC,172529.000,A,4000.7392,N,10515.6972,W,0.49,341.28,260416,,,D*74
$GPGGA,172530.000,4000.7390,N,10515.6975,W,2,04,2.48,203.2,M,-20.6,M,0000,0000*5B
$GPRMC,172530.000,A,4000.7390,N,10515.6975,W,0.40,312.72,260416,,,D*79
$GPGGA,172531.000,4000.7392,N,10515.6977,W,2,04,2.48,203.2,M,-20.6,M,0000,0000*5A
$GPRMC,172531.000,A,4000.7392,N,10515.6977,W,0.54,333.22,260416,,,D*7B
$GPGGA,172532.000,4000.7391,N,10515.6980,W,2,05,1.53,203.5,M,-20.6,M,0000,0000*5D
$GPRMC,172532.000,A,4000.7391,N,10515.6980,W,0.55,310.00,260416,,,D*73
$GPGGA,172533.000,4000.7391,N,10515.6983,W,2,05,1.53,203.7,M,-20.6,M,0000,0000*5D
$GPRMC,172533.000,A,4000.7391,N,10515.6983,W,0.57,314.97,260416,,,D*79
$GPGGA,172534.000,4000.7391,N,10515.6983,W,2,05,1.53,204.0,M,-20.6,M,0000,0000*5A
$GPRMC,172534.000,A,4000.7391,N,10515.6983,W,0.49,330.57,260416,,,D*7B
$GPGGA,172535.000,4000.7392,N,10515.6983,W,2,05,1.53,204.3,M,-20.6,M,0000,0000*5B
$GPRMC,172535.000,A,4000.7392,N,10515.6983,W,0.54,341.60,260416,,,D*77
$GPGGA,172536.000,4000.7390,N,10515.6988,W,2,05,1.53,204.6,M,-20.6,M,0000,0000*54
$GPRMC,172536.000,A,4000.7390,N,10515.6988,W,0.59,289.67,260416,,,D*72
$GPGGA,172537.000,4000.7388,N,10515.6988,W,2,05,1.53,205.1,M,-20.6,M,0000,0000*5A
$GPRMC,172537.000,A,4000.7388,N,10515.6988,W,0.32,293.63,260416,,,D*78
$GPGGA,172538.000,4000.7389,N,10515.6990,W,2,05,1.53,205.4,M,-20.6,M,0000,0000*58
$GPRMC,172538.000,A,4000.7389,N,10515.6990,W,0.52,328.49,260416,,,D*70
$GPGGA,172539.000,4000.7389,N,10515.6992,W,2,05,1.53,205.6,M,-20.6,M,0000,0000*59
$GPRMC,172539.000,A,4000.7389,N,10515.6992,W,0.54,329.34,260416,,,D*7E
$GPGGA,172540.000,4000.7389,N,10515.6993,W,2,05,1.53,205.9,M,-20.6,M,0000,0000*59
$GPRMC,172540.000,A,4000.7389,N,10515.6993,W,0.51,329.89,260416,,,D*72
$GPGGA,172541.000,4000.7389,N,10515.6998,W,2,05,1.53,206.5,M,-20.6,M,0000,0000*5C
$GPRMC,172541.000,A,4000.7389,N,10515.6998,W,0.57,312.91,260416,,,D*7F
$GPGGA,172542.000,4000.7390,N,10515.7001,W,2,05,1.53,206.8,M,-20.6,M,0000,0000*52
$GPRMC,172542.000,A,4000.7390,N,10515.7001,W,0.66,323.00,260416,,,D*74
$GPGGA,172543.000,4000.7391,N,10515.7004,W,2,05,1.53,207.3,M,-20.6,M,0000,0000*5D
$GPRMC,172543.000,A,4000.7391,N,10515.7004,W,0.58,323.52,260416,,,D*7B
$GPGGA,172544.000,4000.7389,N,10515.7003,W,2,05,1.53,207.6,M,-20.6,M,0000,0000*51
$GPRMC,172544.000,A,4000.7389,N,10515.7003,W,0.27,316.42,260416,,,D*7D
$GPGGA,172545.000,4000.7391,N,10515.7007,W,2,05,1.53,207.6,M,-20.6,M,0000,0000*5D
$GPRMC,172545.000,A,4000.7391,N,10515.7007,W,0.54,321.84,260416,,,D*7B
$GPGGA,172546.000,4000.7391,N,10515.7009,W,2,05,1.53,207.9,M,-20.6,M,0000,0000*5F
$GPRMC,172546.000,A,4000.7391,N,10515.7009,W,0.51,309.18,260416,,,D*7C
$GPGGA,172547.000,4000.7391,N,10515.7011,W,2,05,1.53,208.0,M,-20.6,M,0000,0000*51
$GPRMC,172547.000,A,4000.7391,N,10515.7011,W,0.52,327.31,260416,,,D*70
$GPGGA,172548.000,4000.7391,N,10515.7012,W,2,05,1.53,208.2,M,-20.6,M,0000,0000*5F
$GPRMC,172548.000,A,4000.7391,N,10515.7012,W,0.50,324.71,260416,,,D*79
$GPGGA,172549.000,4000.7391,N,10515.7015,W,2,05,1.53,208.5,M,-20.6,M,0000,0000*5E
$GPRMC,172549.000,A,4000.7391,N,10515.7015,W,0.54,305.59,260416,,,D*72
$GPGGA,172550.000,4000.7391,N,10515.7016,W,2,05,1.53,208.8,M,-20.6,M,0000,0000*58
$GPRMC,172550.000,A,4000.7391,N,10515.7016,W,0.45,320.87,260416,,,D*7D
$GPGGA,172551.000,4000.7391,N,10515.7018,W,2,05,1.53,209.0,M,-20.6,M,0000,0000*5E
$GPRMC,172551.000,A,4000.7391,N,10515.7018,W,0.52,319.67,260416,,,D*70
$GPGGA,172552.000,4000.7392,N,10515.7019,W,2,05,1.53,209.6,M,-20.6,M,0000,0000*59
$GPRMC,172552.000,A,4000.7392,N,10515.7019,W,0.52,331.51,260416,,,D*7E
$GPGGA,172553.000,4000.7392,N,10515.7021,W,2,05,1.53,209.9,M,-20.6,M,0000,0000*5C
$GPRMC,172553.000,A,4000.7392,N,10515.7021,W,0.53,329.37,260416,,,D*7C
$GPGGA,172554.000,4000.7393,N,10515.7023,W,2,05,1.53,210.1,M,-20.6,M,0000,0000*58
$GPRMC,172554.000,A,4000.7393,N,10515.7023,W,0.56,330.17,260416,,,D*77
$GPGGA,172555.000,4000.7393,N,10515.7025,W,2,05,1.53,210.4,M,-20.6,M,0000,0000*5A
$GPRMC,172555.000,A,4000.7393,N,10515.7025,W,0.54,330.13,260416,,,D*76
$GPGGA,172556.000,4000.7394,N,10515.7030,W,2,05,1.53,211.0,M,-20.6,M,0000,0000*5F
$GPRMC,172556.000,A,4000.7394,N,10515.7030,W,0.65,316.81,260416,,,D*7B
$GPGGA,172557.000,4000.7396,N,10515.7032,W,2,05,1.53,211.1,M,-20.6,M,0000,0000*5F
$GPRMC,172557.000,A,4000.7396,N,10515.7032,W,0.69,327.46,260416,,,D*7F
$GPGGA,172558.000,4000.7397,N,10515.7034,W,2,05,1.53,211.3,M,-20.6,M,0000,0000*55
$GPRMC,172558.000,A,4000.7397,N,10515.7034,W,0.74,320.92,260416,,,D*75
$GPGGA,172559.000,4000.7397,N,10515.7036,W,2,05,1.53,211.8,M,-20.6,M,0000,0000*5D
$GPRMC,172559.000,A,4000.7397,N,10515.7036,W,0.71,320.21,260416,,,D*7B
$GPGGA,172600.000,4000.7397,N,10515.7038,W,2,05,1.53,212.4,M,-20.6,M,0000,0000*53
$GPRMC,172600.000,A,4000.7397,N,10515.7038,W,0.63,321.86,260416,,,D*75
$GPGGA,172601.000,4000.7398,N,10515.7040,W,2,05,1.53,212.7,M,-20.6,M,0000,0000*51
$GPRMC,172601.000,A,4000.7398,N,10515.7040,W,0.75,323.79,260416,,,D*71
$GPGGA,172602.000,4000.7400,N,10515.7041,W,2,05,1.53,213.0,M,-20.6,M,0000,0000*53
$GPRMC,172602.000,A,4000.7400,N,10515.7041,W,0.76,338.97,260416,,,D*7C
$GPGGA,172603.000,4000.7402,N,10515.7042,W,2,05,1.53,213.5,M,-20.6,M,0000,0000*56
$GPRMC,172603.000,A,4000.7402,N,10515.7042,W,0.66,343.81,260416,,,D*76
$GPGGA,172604.000,4000.7402,N,10515.7043,W,2,05,1.53,213.8,M,-20.6,M,0000,0000*5D
$GPRMC,172604.000,A,4000.7402,N,10515.7043,W,0.54,337.95,260416,,,D*77
$GPGGA,172605.000,4000.7404,N,10515.7046,W,2,05,1.53,214.1,M,-20.6,M,0000,0000*51
$GPRMC,172605.000,A,4000.7404,N,10515.7046,W,0.64,324.91,260416,,,D*70
$GPGGA,172606.000,4000.7405,N,10515.7048,W,2,05,1.53,214.4,M,-20.6,M,0000,0000*58
$GPRMC,172606.000,A,4000.7405,N,10515.7048,W,0.70,339.44,260416,,,D*7D
$GPGGA,172607.000,4000.7407,N,10515.7049,W,2,05,1.53,214.7,M,-20.6,M,0000,0000*59
$GPRMC,172607.000,A,4000.7407,N,10515.7049,W,0.77,342.54,260416,,,D*75
$GPGGA,172608.000,4000.7408,N,10515.7051,W,2,05,1.53,215.0,M,-20.6,M,0000,0000*56
$GPRMC,172608.000,A,4000.7408,N,10515.7051,W,0.76,335.69,260416,,,D*73
$GPGGA,172609.000,4000.7408,N,10515.7055,W,2,05,1.53,215.3,M,-20.6,M,0000,0000*50
$GPRMC,172609.000,A,4000.7408,N,10515.7055,W,0.77,318.24,260416,,,D*71
$GPGGA,172610.000,4000.7408,N,10515.7057,W,2,05,1.53,215.8,M,-20.6,M,0000,0000*51
$GPRMC,172610.000,A,4000.7408,N,10515.7057,W,0.67,314.90,260416,,,D*79
$GPGGA,172611.000,4000.7409,N,10515.7059,W,2,05,1.53,216.4,M,-20.6,M,0000,0000*50
$GPRMC,172611.000,A,4000.7409,N,10515.7059,W,0.73,322.97,260416,,,D*70
$GPGGA,172612.000,4000.7410,N,10515.7061,W,2,05,1.53,216.6,M,-20.6,M,0000,0000*52
$GPRMC,172612.000,A,4000.7410,N,10515.7061,W,0.72,320.80,260416,,,D*75
$GPGGA,172613.000,4000.7411,N,10515.7062,W,2,05,1.53,217.2,M,-20.6,M,0000,0000*54
$GPRMC,172613.000,A,4000.7411,N,10515.7062,W,0.73,333.98,260416,,,D*7C
$GPGGA,172614.000,4000.7410,N,10515.7066,W,2,05,1.53,217.7,M,-20.6,M,0000,0000*53
$GPRMC,172614.000,A,4000.7410,N,10515.7066,W,0.74,305.64,260416,,,D*7F
$GPGGA,172615.000,4000.7411,N,10515.7067,W,2,05,1.53,218.0,M,-20.6,M,0000,0000*5A
$GPRMC,172615.000,A,4000.7411,N,10515.7067,W,0.64,317.09,260416,,,D*77
$GPGGA,172616.000,4000.7413,N,10515.7070,W,2,05,1.53,218.1,M,-20.6,M,0000,0000*5C
$GPRMC,172616.000,A,4000.7413,N,10515.7070,W,0.81,321.43,260416,,,D*70
$GPGGA,172617.000,4000.7413,N,10515.7071,W,2,05,1.53,218.6,M,-20.6,M,0000,0000*5B
